[
    {
        "lat": 50.416924,
        "lon": 2.513619,
        "slug": "la-comte",
        "name": "La Comté",
        "fly": {
            "sectors": [
                [
                    -1,
                    15
                ],
                [
                    270,
                    360
                ]
            ],
            "wind": [
                0,
                5.55
            ]
        }
    },
    {
        "lat": 50.43358,
        "lon": 2.585847,
        "slug": "ohlain",
        "name": "Parc d'Ohlain",
        "fly": {
            "sectors": [
                [
                    180,
                    225
                ]
            ],
            "wind": [
                0,
                5.55
            ]
        }
    },
    {
        "lat": 50.679484,
        "lon": 1.567162,
        "slug": "equihen",
        "name": "Équihen-Plage",
        "fly": {
            "sectors": [
                [
                    250,
                    290
                ]
            ],
            "wind": [
                0,
                6.11
            ]
        }
    },
    {
        "lat": 50.401719,
        "lon": 2.92927,
        "slug": "aquaterra",
        "name": "Gonflage au Parc des Îles",
        "fly": {
            "sectors": [
                [
                    -1,
                    361
                ]
            ],
            "wind": [
                0,
                4
            ]
        }
    },
    {
        "lat": 50.443306,
        "lon": 2.778216,
        "slug": "11-19",
        "name": "⚠ Terrils jumeaux ⚠",
        "fly": {
            "sectors": [
                [
                    -1,
                    30
                ],
                [
                    260,
                    360
                ]
            ],
            "wind": [
                0,
                1.666
            ]
        }
    }
]